{"data":[{"description":"Take the live music performances of Austin City Limits and combine them with the sketch comedy of Portlandia, drop the show in NYC and give the reins to a handful of crafty young multimedia types and you get Music That Doesn't Suck Monthly!\n\n-- MTDSM Presents: Small Town Survivors --\n\nAvery Mandeville and the Man Devils\nAaron Waldman\n\nSketches by Leslie Goshko\n\nMusic News by Katie Barner\n\nAdditional Characters by Ayala Skopp\n\nHosted by Alex Fulton\n\nhttps:\/\/youtu.be\/Xd3WVzsgHLo","end_time":"2017-03-17T00:00:00-0400","name":"MTDSM Presents: Small Town Survivors","place":{"name":"(le) poisson rouge","location":{"city":"New York","country":"United States","latitude":40.728546244,"longitude":-73.999942133333,"state":"NY","street":"158 Bleecker St","zip":"10012"},"id":"13852349119"},"start_time":"2017-03-16T19:00:00-0400","id":"390236811369106"},{"description":"Aaron Waldman, Even So, Eric Winders (closing set) at Hotel Utah","name":"Aaron Waldman \/ Even So \/ Eric Winders (closing set) \/\/ at Hotel Utah","place":{"name":"Hotel Utah Saloon","location":{"city":"San Francisco","country":"United States","latitude":37.779583634673,"longitude":-122.39832364717,"state":"CA","street":"500 4th St","zip":"94107"},"id":"106004036708"},"start_time":"2017-02-28T20:00:00-0800","id":"1636847466610158"},{"description":"Free show!  It'll be my first in LA, and my last in LA for the foreseeable future: Hope to see you there!","end_time":"2017-02-26T21:00:00-0800","name":"Los Angeles Debut at Silverlake Lounge","place":{"name":"Silverlake lounge","location":{"city":"Los Angeles","country":"United States","latitude":34.08300804885,"longitude":-118.27360015025,"state":"CA","street":"2906 W Sunset Blvd","zip":"90026"},"id":"284623121703"},"start_time":"2017-02-26T20:00:00-0800","id":"1230065777030449"},{"description":"Join me for my NYC Debut!  The show is free, and runs during happy hour (four dollar pints, dude). Please invite any friends who might be interested!\nDemos and such are available here: www.aaronwaldman.com","end_time":"2017-01-23T20:00:00-0500","name":"NYC Debut at Pianos","place":{"name":"PIANOS","location":{"city":"New York","country":"United States","latitude":40.72109964364,"longitude":-73.987817925589,"state":"NY","street":"158 Ludlow St","zip":"10002"},"id":"43108655697"},"start_time":"2017-01-23T19:00:00-0500","id":"1183144641800181"},{"description":"Mark Kilianski and Aaron Waldman will be bringing original folk and bluegrass tunes to the Thirsty Pig this Monday night.  There's an extensive beer list, no cover, and no good reason not to come say hi!\n\nhttp:\/\/www.markkilianski.com\/\nhttp:\/\/www.aaronwaldman.com\/","end_time":"2015-11-09T21:00:00-0500","name":"Mark and Aaron \u0040 the Thirsty Pig","place":{"name":"The Thirsty Pig","location":{"city":"Portland","country":"United States","latitude":43.657203,"longitude":-70.253871,"state":"ME","street":"37 Exchange St","zip":"04101"},"id":"165856080143165"},"start_time":"2015-11-09T19:00:00-0500","id":"1507458042885938"},{"description":"Our last night in Vermont!  We're hoping to make some new friends from the Montpelier music scene.  Our tunes are available here: \nchrishellermusic.com\naaronwaldman.com","name":"Chris Heller and Aaron Waldman \u0040Bagitos","place":{"name":"Bagitos Bagel & Burrito Cafe","location":{"city":"Montpelier","country":"United States","latitude":44.258935988608,"longitude":-72.576499885038,"state":"VT","street":"28 Main St","zip":"05602"},"id":"113177065429577"},"start_time":"2015-10-22T18:00:00-0400","id":"1645132172400583"}],"paging":{"cursors":{"before":"MzkwMjM2ODExMzY5MTA2","after":"MTY0NTEzMjE3MjQwMDU4MwZDZD"}}}